{
    "U-Ado": {
        "name": "Adenauer Platz",
        "coordinates": {
            "latitude": 52.4998948,
            "longitude": 13.3071423
        }
    },
    "S-Ad": {
        "name": "Adlershof",
        "coordinates": {
            "latitude": 52.4348328,
            "longitude": 13.5414261
        }
    },
    "U-Afr": {
        "name": "Afrikanische Straße",
        "coordinates": {
            "latitude": 52.560474,
            "longitude": 13.3342953
        }
    },
    "SU-A": {
        "name": "Alexanderplatz",
        "coordinates": {
            "latitude": 52.52179049999999,
            "longitude": 13.4136147
        }
    },
    "SU-S": {
        "name": "Spandau",
        "coordinates": {
            "latitude": 52.53479180000001,
            "longitude": 13.1981128
        }
    },
    "U-AS": {
        "name": "Altstadt-Spandau",
        "coordinates": {
            "latitude": 52.5384338,
            "longitude": 13.2069808
        }
    },
    "S-AR": {
        "name": "Alt-Reinickendorf",
        "coordinates": {
            "latitude": 52.52000659999999,
            "longitude": 13.404954
        }
    },
    "S-Ag": {
        "name": "Altglienicke",
        "coordinates": {
            "latitude": 52.4076886,
            "longitude": 13.5594177
        }
    },
    "S-AB": {
        "name": "Anhalter Bahnhof",
        "coordinates": {
            "latitude": 52.50434,
            "longitude": 13.38206
        }
    },
    "S-At": {
        "name": "Attilastraße",
        "coordinates": {
            "latitude": 52.4475665,
            "longitude": 13.3610298
        }
    },
    "U-Mf": {
        "name": "Alt-Mariendorf",
        "coordinates": {
            "latitude": 52.4391873,
            "longitude": 13.3880299
        }
    },
    "U-ATg": {
        "name": "Alt-Tegel",
        "coordinates": {
            "latitude": 52.5896,
            "longitude": 13.28345
        }
    },
    "SU-Tg": {
        "name": "Tegel",
        "coordinates": {
            "latitude": 52.5535702,
            "longitude": 13.2473751
        }
    },
    "S-TS": {
        "name": "Teltow Stadt",
        "coordinates": {
            "latitude": 52.39684800000001,
            "longitude": 13.2762749
        }
    },
    "U-At": {
        "name": "Alt-Tempelhof",
        "coordinates": {
            "latitude": 52.4662365,
            "longitude": 13.3858403
        }
    },
    "U-Am": {
        "name": "Amrumer Straße",
        "coordinates": {
            "latitude": 52.542202,
            "longitude": 13.349534
        }
    },
    "U-Au": {
        "name": "Augsburger Straße",
        "coordinates": {
            "latitude": 52.4996417,
            "longitude": 13.335868
        }
    },
    "S-Ah": {
        "name": "Ahrensfelde",
        "coordinates": {
            "latitude": 52.57133899999999,
            "longitude": 13.565649
        }
    },
    "U-Bpu": {
        "name": "Bayrischer Platz",
        "coordinates": {
            "latitude": 52.4883837,
            "longitude": 13.3401887
        }
    },
    "S-Ba": {
        "name": "Babelsberg",
        "coordinates": {
            "latitude": 52.3914002,
            "longitude": 13.0928906
        }
    },
    "S-Bsw": {
        "name": "Baumschulenweg",
        "coordinates": {
            "latitude": 52.4675997,
            "longitude": 13.4895805
        }
    },
    "U-Beo": {
        "name": "Berliner Straße",
        "coordinates": {
            "latitude": 52.4871906,
            "longitude": 13.3314158
        }
    },
    "U-B": {
        "name": "Bernauer Straße",
        "coordinates": {
            "latitude": 52.5380872,
            "longitude": 13.396138
        }
    },
    "S-Be": {
        "name": "Bellevue",
        "coordinates": {
            "latitude": 52.5200022,
            "longitude": 13.3480763
        }
    },
    "S-Bfe": {
        "name": "Bergfelde",
        "coordinates": {
            "latitude": 52.6698691,
            "longitude": 13.3212968
        }
    },
    "S-BF": {
        "name": "Bernau-Friedenstal",
        "coordinates": {
            "latitude": 52.6684286,
            "longitude": 13.5645726
        }
    },
    "S-Ber": {
        "name": "Bernau",
        "coordinates": {
            "latitude": 52.6874845,
            "longitude": 13.5672765
        }
    },
    "S-Bes": {
        "name": "Beusselstraße",
        "coordinates": {
            "latitude": 52.53433570000001,
            "longitude": 13.3287218
        }
    },
    "S-Bie": {
        "name": "Biesdorf",
        "coordinates": {
            "latitude": 52.5132111,
            "longitude": 13.5548284
        }
    },
    "S-Bk": {
        "name": "Birkenstein",
        "coordinates": {
            "latitude": 52.51568460000001,
            "longitude": 13.6477553
        }
    },
    "S-Bw": {
        "name": "Birkenwerder",
        "coordinates": {
            "latitude": 52.4868607,
            "longitude": 13.5698747
        }
    },
    "S-BR": {
        "name": "Betriebsbahnhof Rummelsburg",
        "coordinates": {
            "latitude": 52.4936201,
            "longitude": 13.4981836
        }
    },
    "U-Bü": {
        "name": "Biesdorf-Süd",
        "coordinates": {
            "latitude": 52.4996278,
            "longitude": 13.5466139
        }
    },
    "U-Bi": {
        "name": "Birkenstraße",
        "coordinates": {
            "latitude": 52.5324367,
            "longitude": 13.3413357
        }
    },
    "S-Bl": {
        "name": "Blankenburg",
        "coordinates": {
            "latitude": 52.5909641,
            "longitude": 13.4429325
        }
    },
    "S-Blf": {
        "name": "Blankenfelde",
        "coordinates": {
            "latitude": 52.3369979,
            "longitude": 13.4161434
        }
    },
    "S-Bo": {
        "name": "Borgsdorf",
        "coordinates": {
            "latitude": 52.715385,
            "longitude": 13.2764921
        }
    },
    "S-BoS": {
        "name": "Bornholmer Straße",
        "coordinates": {
            "latitude": 52.5548321,
            "longitude": 13.3960829
        }
    },
    "S-BoG": {
        "name": "Botanischer Garten",
        "coordinates": {
            "latitude": 52.4479359,
            "longitude": 13.3071612
        }
    },
    "U-Bmo": {
        "name": "Bismarckstraße",
        "coordinates": {
            "latitude": 52.5114982,
            "longitude": 13.3052236
        }
    },
    "U-Bl": {
        "name": "Blaschkoallee",
        "coordinates": {
            "latitude": 52.4527097,
            "longitude": 13.448983
        }
    },
    "U-Bli": {
        "name": "Blissestraße",
        "coordinates": {
            "latitude": 52.486088,
            "longitude": 13.3203374
        }
    },
    "U-Bo": {
        "name": "Boddinstraße",
        "coordinates": {
            "latitude": 52.4802989,
            "longitude": 13.4252518
        }
    },
    "U-Bk": {
        "name": "Borsigwerke",
        "coordinates": {
            "latitude": 52.58294,
            "longitude": 13.28939
        }
    },
    "SU-BRT": {
        "name": "Brandenburger Tor",
        "coordinates": {
            "latitude": 52.51653599999999,
            "longitude": 13.3817032
        }
    },
    "U-Bt": {
        "name": "Breitenbachplatz",
        "coordinates": {
            "latitude": 52.4670576,
            "longitude": 13.3088954
        }
    },
    "S-Bu": {
        "name": "Buch",
        "coordinates": {
            "latitude": 52.6365826,
            "longitude": 13.4922776
        }
    },
    "S-BC": {
        "name": "Buckower Chaussee",
        "coordinates": {
            "latitude": 52.4108873,
            "longitude": 13.3825663
        }
    },
    "U-Br": {
        "name": "Britz Süd",
        "coordinates": {
            "latitude": 52.437253,
            "longitude": 13.4483718
        }
    },
    "SU-Bs": {
        "name": "Bundesplatz",
        "coordinates": {
            "latitude": 52.47764720000001,
            "longitude": 13.3290788
        }
    },
    "U-Bu": {
        "name": "Bundestag",
        "coordinates": {
            "latitude": 52.52011,
            "longitude": 13.37295
        }
    },
    "U-Bue": {
        "name": "Bülowstraße",
        "coordinates": {
            "latitude": 52.49755390000001,
            "longitude": 13.3634479
        }
    },
    "U-C": {
        "name": "Cottbusser Platz",
        "coordinates": {
            "latitude": 52.5338623,
            "longitude": 13.5964884
        }
    },
    "SU-Chb": {
        "name": "Charlottenburg",
        "coordinates": {
            "latitude": 52.5050174,
            "longitude": 13.302653
        }
    },
    "U-DD": {
        "name": "Dahlem-Dorf",
        "coordinates": {
            "latitude": 52.4576673,
            "longitude": 13.289946
        }
    },
    "U-Obi": {
        "name": "Deutsche Oper",
        "coordinates": {
            "latitude": 52.5119862,
            "longitude": 13.309667
        }
    },
    "U-EB": {
        "name": "Eberswalder Straße",
        "coordinates": {
            "latitude": 52.5414569,
            "longitude": 13.4121735
        }
    },
    "U-Ei": {
        "name": "Eisenacher Straße",
        "coordinates": {
            "latitude": 52.4895133,
            "longitude": 13.3502945
        }
    },
    "S-Eid": {
        "name": "Eichborndamm",
        "coordinates": {
            "latitude": 52.57763,
            "longitude": 13.31663
        }
    },
    "S-Eiw": {
        "name": "Eichwalde",
        "coordinates": {
            "latitude": 52.37173319999999,
            "longitude": 13.6151205
        }
    },
    "U-E": {
        "name": "Elsterwerdaer Platz",
        "coordinates": {
            "latitude": 52.5049964,
            "longitude": 13.5604628
        }
    },
    "S-Er": {
        "name": "Erkner",
        "coordinates": {
            "latitude": 52.4278024,
            "longitude": 13.7520057
        }
    },
    "U-RP": {
        "name": "Ernst-Reuter-Platz",
        "coordinates": {
            "latitude": 52.5115011,
            "longitude": 13.3222014
        }
    },
    "U-Fpo": {
        "name": "Fehrbelliner Platz",
        "coordinates": {
            "latitude": 52.490421,
            "longitude": 13.314223
        }
    },
    "U-Fbs": {
        "name": "Feuerbachstraße",
        "coordinates": {
            "latitude": 52.4639968,
            "longitude": 13.3332962
        }
    },
    "SU-Ff": {
        "name": "Frankfurter Allee",
        "coordinates": {
            "latitude": 52.5144732,
            "longitude": 13.4746855
        }
    },
    "S-BER": {
        "name": "Flughafen BER",
        "coordinates": {
            "latitude": 52.3649645,
            "longitude": 13.5010472
        }
    },
    "U-Ft": {
        "name": "Frankfurter Tor",
        "coordinates": {
            "latitude": 52.5156515,
            "longitude": 13.4539335
        }
    },
    "S-Fd": {
        "name": "Fredersdorf",
        "coordinates": {
            "latitude": 52.5263151,
            "longitude": 13.7611257
        }
    },
    "S-Fr": {
        "name": "Friedenau",
        "coordinates": {
            "latitude": 52.47,
            "longitude": 13.3406
        }
    },
    "S-FfO": {
        "name": "Friedrichsfelde Ost",
        "coordinates": {
            "latitude": 52.5138156,
            "longitude": 13.52008
        }
    },
    "S-Fh": {
        "name": "Friedrichshagen",
        "coordinates": {
            "latitude": 52.4573604,
            "longitude": 13.6240661
        }
    },
    "U-FN": {
        "name": "Franz-Neumann-Platz",
        "coordinates": {
            "latitude": 52.5636569,
            "longitude": 13.3646328
        }
    },
    "U-T": {
        "name": "Freie Universität (Thielplatz)",
        "coordinates": {
            "latitude": 52.45100000000001,
            "longitude": 13.281651
        }
    },
    "U-Fi": {
        "name": "Friedrichsfelde",
        "coordinates": {
            "latitude": 52.506231,
            "longitude": 13.512835
        }
    },
    "SU-Frs": {
        "name": "Friedrichstraße",
        "coordinates": {
            "latitude": 52.5195084,
            "longitude": 13.3884625
        }
    },
    "U-Fw": {
        "name": "Friedrich-Wilhelm-Platz",
        "coordinates": {
            "latitude": 52.4714384,
            "longitude": 13.3286747
        }
    },
    "S-Fhn": {
        "name": "Frohnau",
        "coordinates": {
            "latitude": 52.6329722,
            "longitude": 13.2895463
        }
    },
    "U-Go": {
        "name": "Gleisdreieck",
        "coordinates": {
            "latitude": 52.4995545,
            "longitude": 13.3742009
        }
    },
    "SU-Gb": {
        "name": "Gesundbrunnen",
        "coordinates": {
            "latitude": 52.548814,
            "longitude": 13.388938
        }
    },
    "S-Gs": {
        "name": "Gehrenseestraße",
        "coordinates": {
            "latitude": 52.5561611,
            "longitude": 13.5250601
        }
    },
    "U-Gs": {
        "name": "Gneisenaustraße",
        "coordinates": {
            "latitude": 52.4913293,
            "longitude": 13.3958396
        }
    },
    "S-GrS": {
        "name": "Greifswalder Straße",
        "coordinates": {
            "latitude": 52.5405241,
            "longitude": 13.4389295
        }
    },
    "S-Gbs": {
        "name": "Griebnitzsee",
        "coordinates": {
            "latitude": 52.39452739999999,
            "longitude": 13.1278885
        }
    },
    "S-Grw": {
        "name": "Grunewald",
        "coordinates": {
            "latitude": 52.48845430000001,
            "longitude": 13.2616034
        }
    },
    "U-Gr": {
        "name": "Görlitzer Bahnhof",
        "coordinates": {
            "latitude": 52.4992551,
            "longitude": 13.4278844
        }
    },
    "U-Gz": {
        "name": "Grenzallee",
        "coordinates": {
            "latitude": 52.46348,
            "longitude": 13.44416
        }
    },
    "S-Gr": {
        "name": "Grünau",
        "coordinates": {
            "latitude": 52.413214,
            "longitude": 13.5738108
        }
    },
    "S-GrA": {
        "name": "Grünbergallee",
        "coordinates": {
            "latitude": 52.3992662,
            "longitude": 13.5416504
        }
    },
    "U-Gt": {
        "name": "Güntzelstraße",
        "coordinates": {
            "latitude": 52.4910266,
            "longitude": 13.331133
        }
    },
    "U-Hl": {
        "name": "Halemweg",
        "coordinates": {
            "latitude": 52.5366406,
            "longitude": 13.2866136
        }
    },
    "U-HaT": {
        "name": "Hallesches Tor",
        "coordinates": {
            "latitude": 52.4977685,
            "longitude": 13.390826
        }
    },
    "S-HM": {
        "name": "Hackescher Markt",
        "coordinates": {
            "latitude": 52.5226613,
            "longitude": 13.4022971
        }
    },
    "S-Ha": {
        "name": "Halensee",
        "coordinates": {
            "latitude": 52.4966149,
            "longitude": 13.2899651
        }
    },
    "U-Ha": {
        "name": "Hansaplatz",
        "coordinates": {
            "latitude": 52.51855,
            "longitude": 13.34225
        }
    },
    "U-Hs": {
        "name": "Haselhorst",
        "coordinates": {
            "latitude": 52.53869,
            "longitude": 13.23195
        }
    },
    "SU-HBF": {
        "name": "Hauptbahnhof",
        "coordinates": {
            "latitude": 52.526556,
            "longitude": 13.369842
        }
    },
    "S-Hee": {
        "name": "Heerstraße",
        "coordinates": {
            "latitude": 52.5206269,
            "longitude": 13.1606038
        }
    },
    "S-Hgm": {
        "name": "Hegermühle",
        "coordinates": {
            "latitude": 52.52000659999999,
            "longitude": 13.404954
        }
    },
    "U-Hv": {
        "name": "Hausvogteiplatz",
        "coordinates": {
            "latitude": 52.513364,
            "longitude": 13.395593
        }
    },
    "SU-Hb": {
        "name": "Heidelberger Platz",
        "coordinates": {
            "latitude": 52.4802252,
            "longitude": 13.3118826
        }
    },
    "S-Hes": {
        "name": "Heiligensee",
        "coordinates": {
            "latitude": 52.6247966,
            "longitude": 13.229042
        }
    },
    "S-Hed": {
        "name": "Hennigsdorf",
        "coordinates": {
            "latitude": 52.6377356,
            "longitude": 13.205213
        }
    },
    "U-He": {
        "name": "Heinrich-Heine-Straße",
        "coordinates": {
            "latitude": 52.51011570000001,
            "longitude": 13.416182
        }
    },
    "U-H": {
        "name": "Hellersdorf",
        "coordinates": {
            "latitude": 52.5363215,
            "longitude": 13.605315
        }
    },
    "U-Hpu": {
        "name": "Hermannplatz",
        "coordinates": {
            "latitude": 52.4866057,
            "longitude": 13.424476
        }
    },
    "SU-HMS": {
        "name": "Hermannstraße",
        "coordinates": {
            "latitude": 52.467622,
            "longitude": 13.4309698
        }
    },
    "S-Hd": {
        "name": "Hermsdorf",
        "coordinates": {
            "latitude": 52.61846999999999,
            "longitude": 13.30749
        }
    },
    "S-Hi": {
        "name": "Hirschgarten",
        "coordinates": {
            "latitude": 52.4579353,
            "longitude": 13.6025994
        }
    },
    "S-HN": {
        "name": "Hohen Neuendorf",
        "coordinates": {
            "latitude": 52.66969109999999,
            "longitude": 13.2869895
        }
    },
    "S-HSH": {
        "name": "Hohenschönhausen",
        "coordinates": {
            "latitude": 52.5664265,
            "longitude": 13.5133337
        }
    },
    "U-Hz": {
        "name": "Hohenzollernplatz",
        "coordinates": {
            "latitude": 52.49383,
            "longitude": 13.32405
        }
    },
    "S-Hzd": {
        "name": "Hohenzollerndamm",
        "coordinates": {
            "latitude": 52.48848779999999,
            "longitude": 13.300892
        }
    },
    "S-HoM": {
        "name": "Hoppegarten",
        "coordinates": {
            "latitude": 52.517831,
            "longitude": 13.673748
        }
    },
    "S-HuH": {
        "name": "Humboldthain",
        "coordinates": {
            "latitude": 52.5443486,
            "longitude": 13.3787654
        }
    },
    "U-Hh": {
        "name": "Holzhauser Straße",
        "coordinates": {
            "latitude": 52.57644,
            "longitude": 13.2954
        }
    },
    "U-Hö": {
        "name": "Hönow",
        "coordinates": {
            "latitude": 52.5381537,
            "longitude": 13.634364
        }
    },
    "SU-Ip": {
        "name": "Innsbrucker Platz",
        "coordinates": {
            "latitude": 52.4781075,
            "longitude": 13.3420615
        }
    },
    "U-JK": {
        "name": "Jakob Kaiser Platz",
        "coordinates": {
            "latitude": 52.5365012,
            "longitude": 13.2940118
        }
    },
    "SU-J": {
        "name": "Jannowitzbrücke",
        "coordinates": {
            "latitude": 52.5141781,
            "longitude": 13.4197073
        }
    },
    "S-J": {
        "name": "Johannisthal",
        "coordinates": {
            "latitude": 52.52000659999999,
            "longitude": 13.404954
        }
    },
    "S-JLB": {
        "name": "Julius-Leber-Brücke",
        "coordinates": {
            "latitude": 52.4860208,
            "longitude": 13.3607213
        }
    },
    "U-Jt": {
        "name": "Johannisthaler Chaussee",
        "coordinates": {
            "latitude": 52.4294069,
            "longitude": 13.4532628
        }
    },
    "SU-Jho": {
        "name": "Jungfernheide",
        "coordinates": {
            "latitude": 52.530705,
            "longitude": 13.3004976
        }
    },
    "U-Kd": {
        "name": "Kaiserdamm",
        "coordinates": {
            "latitude": 52.5098524,
            "longitude": 13.2822779
        }
    },
    "U-Ka": {
        "name": "Kaiserin-Augusta-Straße",
        "coordinates": {
            "latitude": 52.4600707,
            "longitude": 13.3847169
        }
    },
    "SU-KB": {
        "name": "Karl-Bonhoeffer-Nervenklinik",
        "coordinates": {
            "latitude": 52.5778311,
            "longitude": 13.329291
        }
    },
    "U-KM": {
        "name": "Karl-Marx-Straße",
        "coordinates": {
            "latitude": 52.47613,
            "longitude": 13.43942
        }
    },
    "S-Kh": {
        "name": "Karlshorst",
        "coordinates": {
            "latitude": 52.48111000000001,
            "longitude": 13.52586
        }
    },
    "S-Kar": {
        "name": "Karow",
        "coordinates": {
            "latitude": 52.614802,
            "longitude": 13.4687294
        }
    },
    "S-Kad": {
        "name": "Kaulsdorf",
        "coordinates": {
            "latitude": 52.5121298,
            "longitude": 13.5905375
        }
    },
    "S-KLH": {
        "name": "Köllnische Heide",
        "coordinates": {
            "latitude": 52.4691364,
            "longitude": 13.467116
        }
    },
    "S-KWH": {
        "name": "Königs Wusterhausen",
        "coordinates": {
            "latitude": 52.29668119999999,
            "longitude": 13.6315629
        }
    },
    "S-K": {
        "name": "Köpenick",
        "coordinates": {
            "latitude": 52.45873750000001,
            "longitude": 13.5799516
        }
    },
    "U-KL": {
        "name": "Kaulsdorf-Nord",
        "coordinates": {
            "latitude": 52.52144819999999,
            "longitude": 13.5888968
        }
    },
    "U-GK": {
        "name": "Kienberg (Gärten der Welt)",
        "coordinates": {
            "latitude": 52.5292402,
            "longitude": 13.5909525
        }
    },
    "U-Kt": {
        "name": "Kleistpark",
        "coordinates": {
            "latitude": 52.490724,
            "longitude": 13.3601535
        }
    },
    "U-Ko": {
        "name": "Kloster Straße",
        "coordinates": {
            "latitude": 52.51723,
            "longitude": 13.41246
        }
    },
    "U-Ks": {
        "name": "Kochstraße (Checkpoint Charlie)",
        "coordinates": {
            "latitude": 52.5064603,
            "longitude": 13.3905482
        }
    },
    "U-Kn": {
        "name": "Konstanzer Straße",
        "coordinates": {
            "latitude": 52.4943156,
            "longitude": 13.3093022
        }
    },
    "U-Kbo": {
        "name": "Kottbusser Tor",
        "coordinates": {
            "latitude": 52.4990174,
            "longitude": 13.4184555
        }
    },
    "U-Kr": {
        "name": "Krumme Lanke",
        "coordinates": {
            "latitude": 52.4430142,
            "longitude": 13.2407594
        }
    },
    "U-Kfu": {
        "name": "Kurfürstendamm",
        "coordinates": {
            "latitude": 52.503436,
            "longitude": 13.3308807
        }
    },
    "U-Kus": {
        "name": "Kurfürstenstraße",
        "coordinates": {
            "latitude": 52.499834,
            "longitude": 13.3623797
        }
    },
    "U-Sch": {
        "name": "Kurt-Schumacher-Platz",
        "coordinates": {
            "latitude": 52.5635469,
            "longitude": 13.3274373
        }
    },
    "U-L": {
        "name": "Leinestraße",
        "coordinates": {
            "latitude": 52.4734466,
            "longitude": 13.4281645
        }
    },
    "S-LaA": {
        "name": "Landsberger Allee",
        "coordinates": {
            "latitude": 52.5291668,
            "longitude": 13.4550619
        }
    },
    "S-Law": {
        "name": "Lankwitz",
        "coordinates": {
            "latitude": 52.4390911,
            "longitude": 13.3424391
        }
    },
    "S-Leh": {
        "name": "Lehnitz",
        "coordinates": {
            "latitude": 52.7463281,
            "longitude": 13.2926302
        }
    },
    "U-Lpu": {
        "name": "Leopoldplatz",
        "coordinates": {
            "latitude": 52.5465178,
            "longitude": 13.3593543
        }
    },
    "S-ULi": {
        "name": "Lichtenberg",
        "coordinates": {
            "latitude": 52.5094936,
            "longitude": 13.4972225
        }
    },
    "S-Lir": {
        "name": "Lichtenrade",
        "coordinates": {
            "latitude": 52.387297,
            "longitude": 13.396175
        }
    },
    "S-LiO": {
        "name": "Lichterfelde Ost",
        "coordinates": {
            "latitude": 52.42956969999999,
            "longitude": 13.3276965
        }
    },
    "S-LiS": {
        "name": "Lichterfelde Süd",
        "coordinates": {
            "latitude": 52.410765,
            "longitude": 13.308939
        }
    },
    "S-LiW": {
        "name": "Lichterfelde West",
        "coordinates": {
            "latitude": 52.443393,
            "longitude": 13.2937695
        }
    },
    "U-LD": {
        "name": "Lindauer Allee",
        "coordinates": {
            "latitude": 52.57536450000001,
            "longitude": 13.3387311
        }
    },
    "U-La": {
        "name": "Lipschitzallee",
        "coordinates": {
            "latitude": 52.42474840000001,
            "longitude": 13.4624299
        }
    },
    "U-LL": {
        "name": "Louis-Lewin-Straße",
        "coordinates": {
            "latitude": 52.5389769,
            "longitude": 13.6184467
        }
    },
    "U-Md": {
        "name": "Magdalenenstraße",
        "coordinates": {
            "latitude": 52.5124398,
            "longitude": 13.4873591
        }
    },
    "U-Mk": {
        "name": "Märkisches Museum",
        "coordinates": {
            "latitude": 52.5126765,
            "longitude": 13.4111807
        }
    },
    "U-Me": {
        "name": "Mehringdamm",
        "coordinates": {
            "latitude": 52.4946034,
            "longitude": 13.3888262
        }
    },
    "S-Maw": {
        "name": "Mahlow",
        "coordinates": {
            "latitude": 52.3601614,
            "longitude": 13.4085307
        }
    },
    "S-Mad": {
        "name": "Mahlsdorf",
        "coordinates": {
            "latitude": 52.5124825,
            "longitude": 13.6118999
        }
    },
    "S-Maf": {
        "name": "Marienfelde",
        "coordinates": {
            "latitude": 52.4235224,
            "longitude": 13.3748672
        }
    },
    "S-Maz": {
        "name": "Marzahn",
        "coordinates": {
            "latitude": 52.54381,
            "longitude": 13.54149
        }
    },
    "S-MeA": {
        "name": "Mehrower Allee",
        "coordinates": {
            "latitude": 52.55777,
            "longitude": 13.55367
        }
    },
    "SU-MNI": {
        "name": "Messe Nord/ICC",
        "coordinates": {
            "latitude": 52.506708,
            "longitude": 13.2829259
        }
    },
    "S-MS": {
        "name": "Messe Süd",
        "coordinates": {
            "latitude": 52.4987507,
            "longitude": 13.2699373
        }
    },
    "S-MP": {
        "name": "Mexikoplatz",
        "coordinates": {
            "latitude": 52.4370196,
            "longitude": 13.2326716
        }
    },
    "S-MM": {
        "name": "Mühlenbeck-Mönchmühle",
        "coordinates": {
            "latitude": 52.6545983,
            "longitude": 13.3866596
        }
    },
    "S-NH": {
        "name": "Neuenhagen",
        "coordinates": {
            "latitude": 52.520812,
            "longitude": 13.699738
        }
    },
    "U-MB": {
        "name": "Mendelssohn-Bartholdy-Park",
        "coordinates": {
            "latitude": 52.5034494,
            "longitude": 13.3747686
        }
    },
    "U-Mp": {
        "name": "Mierendorffplatz",
        "coordinates": {
            "latitude": 52.5259425,
            "longitude": 13.3058917
        }
    },
    "U-Mo": {
        "name": "Möckernbrücke",
        "coordinates": {
            "latitude": 52.4985438,
            "longitude": 13.3826809
        }
    },
    "U-MH": {
        "name": "Mohrenstraße",
        "coordinates": {
            "latitude": 52.51152,
            "longitude": 13.3838
        }
    },
    "U-Mr": {
        "name": "Moritzplatz",
        "coordinates": {
            "latitude": 52.5036429,
            "longitude": 13.410774
        }
    },
    "U-Ms": {
        "name": "Museumsinsel",
        "coordinates": {
            "latitude": 52.51746000000001,
            "longitude": 13.39987
        }
    },
    "U-NA": {
        "name": "Naturkundemuseum",
        "coordinates": {
            "latitude": 52.5312826,
            "longitude": 13.3822229
        }
    },
    "U-Np": {
        "name": "Nauener Platz",
        "coordinates": {
            "latitude": 52.55152,
            "longitude": 13.36736
        }
    },
    "S-We": {
        "name": "Westend",
        "coordinates": {
            "latitude": 52.5184338,
            "longitude": 13.2843527
        }
    },
    "U-Nd": {
        "name": "Neu Westend",
        "coordinates": {
            "latitude": 52.5160363,
            "longitude": 13.2604948
        }
    },
    "SU-Nk": {
        "name": "Neukölln",
        "coordinates": {
            "latitude": 52.4694625,
            "longitude": 13.4420554
        }
    },
    "U-Nm": {
        "name": "Nollendorfplatz",
        "coordinates": {
            "latitude": 52.4994539,
            "longitude": 13.3541956
        }
    },
    "S-NiS": {
        "name": "Nikolassee",
        "coordinates": {
            "latitude": 52.4322439,
            "longitude": 13.1930072
        }
    },
    "S-NB": {
        "name": "Nordbahnhof",
        "coordinates": {
            "latitude": 52.5318835,
            "longitude": 13.3883826
        }
    },
    "S-Np": {
        "name": "Nöldnerplatz",
        "coordinates": {
            "latitude": 52.50370530000001,
            "longitude": 13.4849509
        }
    },
    "S-Os": {
        "name": "Oberspree",
        "coordinates": {
            "latitude": 52.45246789999999,
            "longitude": 13.5382522
        }
    },
    "SU-Sd": {
        "name": "Olympia-Stadion",
        "coordinates": {
            "latitude": 52.5173151,
            "longitude": 13.2500368
        }
    },
    "S-Or": {
        "name": "Oranienburg",
        "coordinates": {
            "latitude": 52.7545203,
            "longitude": 13.2484878
        }
    },
    "S-OrS": {
        "name": "Oranienburger Straße",
        "coordinates": {
            "latitude": 52.5249776,
            "longitude": 13.3929084
        }
    },
    "S-OdS": {
        "name": "Osdorfer Straße",
        "coordinates": {
            "latitude": 52.4182613,
            "longitude": 13.3137424
        }
    },
    "S-Ost": {
        "name": "Ostbahnhof",
        "coordinates": {
            "latitude": 52.5098959,
            "longitude": 13.4360449
        }
    },
    "S-Okz": {
        "name": "Ostkreuz",
        "coordinates": {
            "latitude": 52.5031574,
            "longitude": 13.4692576
        }
    },
    "U-Ot": {
        "name": "Onkel Toms Hütte",
        "coordinates": {
            "latitude": 52.45015,
            "longitude": 13.25402
        }
    },
    "U-Ob": {
        "name": "Oranienburger Tor",
        "coordinates": {
            "latitude": 52.5255221,
            "longitude": 13.3873981
        }
    },
    "U-Os": {
        "name": "Oskar-Helene-Heim",
        "coordinates": {
            "latitude": 52.45032339999999,
            "longitude": 13.2698501
        }
    },
    "U-Olu": {
        "name": "Osloer Straße",
        "coordinates": {
            "latitude": 52.5568007,
            "longitude": 13.3733342
        }
    },
    "U-OTI": {
        "name": "Otisstraße",
        "coordinates": {
            "latitude": 52.5710609,
            "longitude": 13.3029104
        }
    },
    "SU-PA": {
        "name": "Pankow",
        "coordinates": {
            "latitude": 52.5663978,
            "longitude": 13.4105224
        }
    },
    "U-Pks": {
        "name": "Pankstraße",
        "coordinates": {
            "latitude": 52.55251029999999,
            "longitude": 13.3817724
        }
    },
    "S-PeB": {
        "name": "Perleberger Brücke",
        "coordinates": {
            "latitude": 52.53576,
            "longitude": 13.3577
        }
    },
    "SU-PAH": {
        "name": "Pankow-Heinersdorf",
        "coordinates": {
            "latitude": 52.5696843,
            "longitude": 13.4377853
        }
    },
    "S-PN": {
        "name": "Petershagen Nord",
        "coordinates": {
            "latitude": 52.52909039999999,
            "longitude": 13.7899209
        }
    },
    "S-PB": {
        "name": "Pichelsberg",
        "coordinates": {
            "latitude": 52.5098132,
            "longitude": 13.2287133
        }
    },
    "S-Pw": {
        "name": "Plänterwald",
        "coordinates": {
            "latitude": 52.4786859,
            "longitude": 13.4736363
        }
    },
    "S-Pc": {
        "name": "Poelchaustraße",
        "coordinates": {
            "latitude": 52.5357114,
            "longitude": 13.5355019
        }
    },
    "S-PH": {
        "name": "Potsdam Hauptbahnhof",
        "coordinates": {
            "latitude": 52.39145,
            "longitude": 13.06716
        }
    },
    "U-PB": {
        "name": "Paracelsus-Bad",
        "coordinates": {
            "latitude": 52.5744194,
            "longitude": 13.3473889
        }
    },
    "U-Ps": {
        "name": "Paradestraße",
        "coordinates": {
            "latitude": 52.4781963,
            "longitude": 13.3858249
        }
    },
    "U-Pi": {
        "name": "Parchimer Allee",
        "coordinates": {
            "latitude": 52.4453131,
            "longitude": 13.4497582
        }
    },
    "U-P": {
        "name": "Paulsternstraße",
        "coordinates": {
            "latitude": 52.538095,
            "longitude": 13.2485737
        }
    },
    "U-PL": {
        "name": "Platz der Luftbrücke",
        "coordinates": {
            "latitude": 52.48549000000001,
            "longitude": 13.38597
        }
    },
    "U-Po": {
        "name": "Podbielskiallee",
        "coordinates": {
            "latitude": 52.4643548,
            "longitude": 13.296435
        }
    },
    "S-PrA": {
        "name": "Prenzlauer Allee",
        "coordinates": {
            "latitude": 52.5451019,
            "longitude": 13.4274852
        }
    },
    "S-Prw": {
        "name": "Priesterweg",
        "coordinates": {
            "latitude": 52.4595265,
            "longitude": 13.356043
        }
    },
    "S-Rd": {
        "name": "Rahnsdorf",
        "coordinates": {
            "latitude": 52.4516143,
            "longitude": 13.6913293
        }
    },
    "S-RWS": {
        "name": "Raoul-Wallenberg-Straße",
        "coordinates": {
            "latitude": 52.55074,
            "longitude": 13.54759
        }
    },
    "SU-Pd": {
        "name": "Potsdamer Platz",
        "coordinates": {
            "latitude": 52.5094625,
            "longitude": 13.3788177
        }
    },
    "U-Pr": {
        "name": "Prinzenstraße",
        "coordinates": {
            "latitude": 52.4983976,
            "longitude": 13.4058573
        }
    },
    "U-Rk": {
        "name": "Rathaus Neukölln",
        "coordinates": {
            "latitude": 52.4815729,
            "longitude": 13.4342985
        }
    },
    "U-RR": {
        "name": "Rathaus Reinickendorf",
        "coordinates": {
            "latitude": 52.588874,
            "longitude": 13.3248067
        }
    },
    "U-RS": {
        "name": "Rathaus Schöneberg",
        "coordinates": {
            "latitude": 52.4836065,
            "longitude": 13.3418194
        }
    },
    "U-RSp": {
        "name": "Rathaus Spandau",
        "coordinates": {
            "latitude": 52.53479180000001,
            "longitude": 13.1981128
        }
    },
    "SU-Rzu": {
        "name": "Rathaus Steglitz",
        "coordinates": {
            "latitude": 52.4568713,
            "longitude": 13.320676
        }
    },
    "U-Rb": {
        "name": "Rehberge",
        "coordinates": {
            "latitude": 52.5562846,
            "longitude": 13.3416792
        }
    },
    "S-Rub": {
        "name": "Rummelsburg",
        "coordinates": {
            "latitude": 52.50133599999999,
            "longitude": 13.4782467
        }
    },
    "S-Rgt": {
        "name": "Röntgental",
        "coordinates": {
            "latitude": 52.6493055,
            "longitude": 13.5143122
        }
    },
    "U-Ri": {
        "name": "Reinickendorfer Straße",
        "coordinates": {
            "latitude": 52.5486114,
            "longitude": 13.3689914
        }
    },
    "U-RE": {
        "name": "Residenzstraße",
        "coordinates": {
            "latitude": 52.57084,
            "longitude": 13.36064
        }
    },
    "U-RUE": {
        "name": "Rüdesheimer Platz",
        "coordinates": {
            "latitude": 52.472911,
            "longitude": 13.3144008
        }
    },
    "U-Rw": {
        "name": "Richard-Wagner-Platz",
        "coordinates": {
            "latitude": 52.5172813,
            "longitude": 13.3065942
        }
    },
    "U-Rm": {
        "name": "Rohrdamm",
        "coordinates": {
            "latitude": 52.5369523,
            "longitude": 13.2617213
        }
    },
    "U-Lu": {
        "name": "Rosa-Luxemburg-Platz",
        "coordinates": {
            "latitude": 52.5282259,
            "longitude": 13.4102257
        }
    },
    "U-Ro": {
        "name": "Rosenthaler Platz",
        "coordinates": {
            "latitude": 52.52978,
            "longitude": 13.40139
        }
    },
    "U-Ra": {
        "name": "Rotes Rathaus",
        "coordinates": {
            "latitude": 52.5188972,
            "longitude": 13.4085291
        }
    },
    "U-Rd": {
        "name": "Rudow",
        "coordinates": {
            "latitude": 52.4162312,
            "longitude": 13.4952982
        }
    },
    "U-Rl": {
        "name": "Ruhleben",
        "coordinates": {
            "latitude": 52.525648,
            "longitude": 13.24122
        }
    },
    "U-Sa": {
        "name": "Samariter Straße",
        "coordinates": {
            "latitude": 52.5147677,
            "longitude": 13.4630192
        }
    },
    "U-Scha": {
        "name": "Scharnweber Straße",
        "coordinates": {
            "latitude": 52.5669332,
            "longitude": 13.3121764
        }
    },
    "S-Sav": {
        "name": "Savignyplatz",
        "coordinates": {
            "latitude": 52.5051739,
            "longitude": 13.319089
        }
    },
    "S-Sau": {
        "name": "Schichauweg",
        "coordinates": {
            "latitude": 52.39853,
            "longitude": 13.389279
        }
    },
    "S-SS": {
        "name": "Schlachtensee",
        "coordinates": {
            "latitude": 52.4400238,
            "longitude": 13.2149845
        }
    },
    "S-SD": {
        "name": "Schulzendorf",
        "coordinates": {
            "latitude": 52.52000659999999,
            "longitude": 13.404954
        }
    },
    "S-Sb": {
        "name": "Schöneberg",
        "coordinates": {
            "latitude": 52.47976999999999,
            "longitude": 13.35245
        }
    },
    "S-Sf": {
        "name": "Schönefeld",
        "coordinates": {
            "latitude": 52.3909604,
            "longitude": 13.514048
        }
    },
    "S-Sw": {
        "name": "Schöneweide",
        "coordinates": {
            "latitude": 52.4558072,
            "longitude": 13.5098758
        }
    },
    "S-Scf": {
        "name": "Schönfließ",
        "coordinates": {
            "latitude": 52.6647269,
            "longitude": 13.3398804
        }
    },
    "U-Si": {
        "name": "Schillingstraße",
        "coordinates": {
            "latitude": 52.52032000000001,
            "longitude": 13.4219
        }
    },
    "U-S": {
        "name": "Schlesisches Tor",
        "coordinates": {
            "latitude": 52.5009224,
            "longitude": 13.4415344
        }
    },
    "U-Slo": {
        "name": "Schloßstraße",
        "coordinates": {
            "latitude": 52.46118260000001,
            "longitude": 13.3248367
        }
    },
    "S-Sh": {
        "name": "Schönholz",
        "coordinates": {
            "latitude": 52.5712685,
            "longitude": 13.3814605
        }
    },
    "S-Sa": {
        "name": "Sonnenallee",
        "coordinates": {
            "latitude": 52.4728563,
            "longitude": 13.4553509
        }
    },
    "SU-Sh": {
        "name": "Schönhauser Allee",
        "coordinates": {
            "latitude": 52.5493146,
            "longitude": 13.413679
        }
    },
    "U-ST": {
        "name": "Schönleinstraße",
        "coordinates": {
            "latitude": 52.4926548,
            "longitude": 13.4221147
        }
    },
    "S-Spf": {
        "name": "Spindlersfeld",
        "coordinates": {
            "latitude": 52.4472582,
            "longitude": 13.5615313
        }
    },
    "S-Spl": {
        "name": "Springpfuhl",
        "coordinates": {
            "latitude": 52.5256582,
            "longitude": 13.5362056
        }
    },
    "S-StS": {
        "name": "Storkower Straße",
        "coordinates": {
            "latitude": 52.5238265,
            "longitude": 13.4646009
        }
    },
    "S-St": {
        "name": "Strausberg",
        "coordinates": {
            "latitude": 52.5659128,
            "longitude": 13.8777546
        }
    },
    "S-StN": {
        "name": "Strausberg Nord",
        "coordinates": {
            "latitude": 52.5905525,
            "longitude": 13.9087754
        }
    },
    "S-SbS": {
        "name": "Strausberg Stadt",
        "coordinates": {
            "latitude": 52.57681420000001,
            "longitude": 13.8879528
        }
    },
    "S-Str": {
        "name": "Stresow",
        "coordinates": {
            "latitude": 52.5321702,
            "longitude": 13.2092464
        }
    },
    "S-SuS": {
        "name": "Sundgauer Straße",
        "coordinates": {
            "latitude": 52.4379536,
            "longitude": 13.2717849
        }
    },
    "S-Se": {
        "name": "Südende",
        "coordinates": {
            "latitude": 52.44892060000001,
            "longitude": 13.3540537
        }
    },
    "S-Skz": {
        "name": "Südkreuz",
        "coordinates": {
            "latitude": 52.4757159,
            "longitude": 13.3655517
        }
    },
    "U-Sk": {
        "name": "Schwartzkopffstraße",
        "coordinates": {
            "latitude": 52.5354627,
            "longitude": 13.3769481
        }
    },
    "U-Se": {
        "name": "Seestraße",
        "coordinates": {
            "latitude": 52.55027399999999,
            "longitude": 13.3523534
        }
    },
    "U-Sz": {
        "name": "Senefelderplatz",
        "coordinates": {
            "latitude": 52.5330492,
            "longitude": 13.4128293
        }
    },
    "U-Sie": {
        "name": "Siemensdamm",
        "coordinates": {
            "latitude": 52.5366395,
            "longitude": 13.2726875
        }
    },
    "U-So": {
        "name": "Sophie-Charlotte-Platz",
        "coordinates": {
            "latitude": 52.51117,
            "longitude": 13.29679
        }
    },
    "U-Sno": {
        "name": "Spichernstraße",
        "coordinates": {
            "latitude": 52.4966197,
            "longitude": 13.3310624
        }
    },
    "U-Sp": {
        "name": "Spittelmarkt",
        "coordinates": {
            "latitude": 52.51129659999999,
            "longitude": 13.4037505
        }
    },
    "U-Mi": {
        "name": "Stadtmitte",
        "coordinates": {
            "latitude": 52.51061,
            "longitude": 13.38986
        }
    },
    "U-Sr": {
        "name": "Strausberger Platz",
        "coordinates": {
            "latitude": 52.5180368,
            "longitude": 13.4322456
        }
    },
    "U-Su": {
        "name": "Südstern",
        "coordinates": {
            "latitude": 52.4893025,
            "longitude": 13.4077216
        }
    },
    "SU-Ts": {
        "name": "Tempelhof",
        "coordinates": {
            "latitude": 52.4709155,
            "longitude": 13.3847575
        }
    },
    "S-Tg": {
        "name": "Tiergarten",
        "coordinates": {
            "latitude": 52.513956,
            "longitude": 13.3362716
        }
    },
    "S-TP": {
        "name": "Treptower Park",
        "coordinates": {
            "latitude": 52.4939659,
            "longitude": 13.4613863
        }
    },
    "U-Th": {
        "name": "Theodor-Heuss-Platz",
        "coordinates": {
            "latitude": 52.509894,
            "longitude": 13.272642
        }
    },
    "U-Tk": {
        "name": "Tierpark",
        "coordinates": {
            "latitude": 52.4969379,
            "longitude": 13.523489
        }
    },
    "U-Tm": {
        "name": "Turmstraße",
        "coordinates": {
            "latitude": 52.52594,
            "longitude": 13.34142
        }
    },
    "U-U": {
        "name": "Uhlandstraße",
        "coordinates": {
            "latitude": 52.50284139999999,
            "longitude": 13.3268939
        }
    },
    "S-W": {
        "name": "Waidmannslust",
        "coordinates": {
            "latitude": 52.6070606,
            "longitude": 13.3202511
        }
    },
    "S-Wa": {
        "name": "Wannsee",
        "coordinates": {
            "latitude": 52.4213627,
            "longitude": 13.1790299
        }
    },
    "U-Ull": {
        "name": "Ullsteinstraße",
        "coordinates": {
            "latitude": 52.452835,
            "longitude": 13.384133
        }
    },
    "U-UDU": {
        "name": "Unter den Linden",
        "coordinates": {
            "latitude": 52.5170229,
            "longitude": 13.3890441
        }
    },
    "U-V": {
        "name": "Viktoria-Luise-Platz",
        "coordinates": {
            "latitude": 52.49617,
            "longitude": 13.34326
        }
    },
    "U-VIN": {
        "name": "Vinetastraße",
        "coordinates": {
            "latitude": 52.55933690000001,
            "longitude": 13.4134272
        }
    },
    "U-Vo": {
        "name": "Voltastraße",
        "coordinates": {
            "latitude": 52.5420793,
            "longitude": 13.393075
        }
    },
    "U-Wsg": {
        "name": "Walther-Schreiber-Platz",
        "coordinates": {
            "latitude": 52.4653885,
            "longitude": 13.3286
        }
    },
    "SU-WA": {
        "name": "Warschauer Straße",
        "coordinates": {
            "latitude": 52.5064656,
            "longitude": 13.4499693
        }
    },
    "S-Wd": {
        "name": "Waßmannsdorf",
        "coordinates": {
            "latitude": 52.36837939999999,
            "longitude": 13.4636319
        }
    },
    "S-Wb": {
        "name": "Wartenberg",
        "coordinates": {
            "latitude": 52.5733139,
            "longitude": 13.5042599
        }
    },
    "U-WR": {
        "name": "Weberwiese",
        "coordinates": {
            "latitude": 52.5166096,
            "longitude": 13.4432241
        }
    },
    "S-UWe": {
        "name": "Wedding",
        "coordinates": {
            "latitude": 52.5504827,
            "longitude": 13.3519841
        }
    },
    "U-W": {
        "name": "Weinmeisterstraße",
        "coordinates": {
            "latitude": 52.52547329999999,
            "longitude": 13.4050193
        }
    },
    "SU-WF": {
        "name": "Westhafen",
        "coordinates": {
            "latitude": 52.53625109999999,
            "longitude": 13.3439835
        }
    },
    "S-Wkz": {
        "name": "Westkreuz",
        "coordinates": {
            "latitude": 52.5011407,
            "longitude": 13.283135
        }
    },
    "S-Wld": {
        "name": "Wildau",
        "coordinates": {
            "latitude": 52.3191132,
            "longitude": 13.6336866
        }
    },
    "S-Wh": {
        "name": "Wilhelmshagen",
        "coordinates": {
            "latitude": 52.438998,
            "longitude": 13.7212819
        }
    },
    "S-Wr": {
        "name": "Wilhelmsruh",
        "coordinates": {
            "latitude": 52.5815666,
            "longitude": 13.3625056
        }
    },
    "U-Wl": {
        "name": "Westphalweg",
        "coordinates": {
            "latitude": 52.4459321,
            "longitude": 13.3857769
        }
    },
    "U-Wd": {
        "name": "Wilmersdorfer Straße",
        "coordinates": {
            "latitude": 52.50642,
            "longitude": 13.30677
        }
    },
    "SU-WIU": {
        "name": "Wittenau",
        "coordinates": {
            "latitude": 52.5955606,
            "longitude": 13.3352923
        }
    },
    "S-WoS": {
        "name": "Wollankstraße",
        "coordinates": {
            "latitude": 52.5657655,
            "longitude": 13.3910674
        }
    },
    "U-Wt": {
        "name": "Wittenbergplatz",
        "coordinates": {
            "latitude": 52.501839,
            "longitude": 13.343
        }
    },
    "SU-Wh": {
        "name": "Wuhletal",
        "coordinates": {
            "latitude": 52.5126936,
            "longitude": 13.5751905
        }
    },
    "S-Wlh": {
        "name": "Wuhlheide",
        "coordinates": {
            "latitude": 52.4688127,
            "longitude": 13.5538118
        }
    },
    "U-Wk": {
        "name": "Wutzkyallee",
        "coordinates": {
            "latitude": 52.4232775,
            "longitude": 13.4741797
        }
    },
    "SU-Y": {
        "name": "Yorckstraße",
        "coordinates": {
            "latitude": 52.4930806,
            "longitude": 13.3696171
        }
    },
    "U-Zi": {
        "name": "Zitadelle",
        "coordinates": {
            "latitude": 52.5374695,
            "longitude": 13.2176013
        }
    },
    "S-Ze": {
        "name": "Zehlendorf",
        "coordinates": {
            "latitude": 52.4310825,
            "longitude": 13.2585756
        }
    },
    "S-Zep": {
        "name": "Zepernick",
        "coordinates": {
            "latitude": 52.6594279,
            "longitude": 13.5330085
        }
    },
    "S-Zeu": {
        "name": "Zeuthen",
        "coordinates": {
            "latitude": 52.3493284,
            "longitude": 13.626982
        }
    },
    "SU-Zo": {
        "name": "Zoologischer Garten",
        "coordinates": {
            "latitude": 52.50738699999999,
            "longitude": 13.3325116
        }
    },
    "U-Zd": {
        "name": "Zwickauer Damm",
        "coordinates": {
            "latitude": 52.4232542,
            "longitude": 13.4837446
        }
    }
}